City_ID,City,Country,Max Temp,Current Description,Lat,Lng,Hotel Name
1,Butaritari,KI,81.25,overcast clouds,3.07,172.79,Isles Sunset Lodge
7,Puerto Ayora,EC,75.2,broken clouds,-0.74,-90.35,Finch Bay Galapagos Hotel
9,Vila Velha,BR,79.0,scattered clouds,-20.33,-40.29,Hotel Vitória Palace
11,Gouyave,GD,86.0,broken clouds,12.16,-61.73,Rumboat Retreat
16,Zacualpan,MX,80.6,clear sky,21.25,-105.17,La Colorada B&B
24,Sao Joao Da Barra,BR,75.2,overcast clouds,-21.64,-41.05,Pousada Porto De Canoas
32,Sinnamary,GF,81.84,moderate rain,5.38,-52.95,ALETHEIA Appartement Sinnamary
39,Salalah,OM,78.8,clear sky,17.02,54.09,HAMDAN PLAZA HOTEL
40,San Andres,CO,78.8,light intensity drizzle,12.58,-81.7,Hotel Arena Blanca
46,Axim,GH,79.83,broken clouds,4.87,-2.24,AXIM BEACH RESORT AND SPA
51,Cayenne,GF,78.8,moderate rain,4.93,-52.33,Hôtel Le Dronmi
58,Castro,BR,75.65,clear sky,-24.79,-50.01,CHACARA BAILLY
62,Tautira,PF,80.6,few clouds,-17.73,-149.15,Pension Oaoa
80,Georgetown,MY,78.8,light rain,5.41,100.34,Cititel Penang
82,Acarau,BR,87.42,scattered clouds,-2.89,-40.12,castelo pizzaria
84,Quelimane,MZ,84.2,clear sky,-17.88,36.89,Hotel Flamingo
88,Upata,VE,85.1,light rain,8.01,-62.4,Posada Villa Nela
89,Faanui,PF,79.88,scattered clouds,-16.48,-151.75,Bora-Bora Pearl Beach Resort & Spa
92,Natal,BR,86.0,broken clouds,-5.79,-35.21,Villa Park Hotel | Natal
101,Saint Pete Beach,US,84.0,overcast clouds,27.73,-82.74,TradeWinds Island Grand Resort
107,Cockburn Town,TC,81.28,light rain,21.46,-71.14,Osprey Beach Hotel
108,Itarema,BR,86.54,scattered clouds,-2.92,-39.92,Windvillage
110,Bubaque,GW,84.24,few clouds,11.28,-15.83,"Casa Dora, Bubaque"
114,Kismayo,SO,80.31,broken clouds,-0.36,42.55,Agan-Hotel
115,Isangel,VU,76.69,clear sky,-19.55,169.27,Volcano Sea View Tree House
116,Sao Filipe,CV,77.92,broken clouds,14.9,-24.5,Tortuga B&B
117,San Ignacio,BZ,78.8,light rain,17.16,-89.07,Rainforest Haven Inn
123,Porto Novo,BJ,86.0,scattered clouds,6.5,2.6,Tour Eiffel Hotel Benin
126,Mapiripan,CO,87.21,light rain,2.89,-72.13,Monserrate
136,Cabo San Lucas,MX,84.99,clear sky,22.89,-109.91,Hotel Tesoro Los Cabos
137,Neiafu,TO,75.2,broken clouds,-18.65,-173.98,Mystic Sands
138,Chongwe,ZM,79.38,clear sky,-15.33,28.68,Farm KS
146,Vicksburg,US,75.2,clear sky,32.35,-90.88,La Quinta Inn & Suites by Wyndham Vicksburg
148,Victoria,HK,77.0,scattered clouds,22.29,114.16,Mini Hotel Central
158,Kahului,US,75.2,broken clouds,20.89,-156.47,Maui Seaside Hotel
160,Touros,BR,86.0,scattered clouds,-5.2,-35.46,INN NEW HORIZON
164,Meteti,PA,83.53,scattered clouds,8.5,-77.98,Txai Mauá
170,Luanda,AO,82.4,few clouds,-8.84,13.23,EPIC SANA Luanda
173,Saint-Georges,GD,86.0,broken clouds,12.06,-61.75,Siesta Hotel
174,Boke,GN,86.4,scattered clouds,10.94,-14.3,Hôtel Rio Nunez - Boké
175,Cunha,BR,82.4,few clouds,-23.07,-44.96,Pousada Calu
178,Olinda,BR,86.0,broken clouds,-8.01,-34.86,Hotel 5 Sóis
183,Atuona,PF,77.99,broken clouds,-9.8,-139.03,Villa Enata
187,Toamasina,MG,77.0,shower rain,-18.17,49.38,Hotel H1
195,Buraydah,SA,77.0,few clouds,26.33,43.98,Mövenpick Hotel Qassim
202,Tamandare,BR,82.58,overcast clouds,-8.76,-35.1,Pousada 100 Passos
205,Buchanan,LR,82.4,broken clouds,5.88,-10.05,Kamaneahn Hotel Inc
211,Trussville,US,77.0,few clouds,33.62,-86.61,Courtyard by Marriott Birmingham Trussville
215,Guerrero Negro,MX,80.96,broken clouds,27.98,-114.06,"Casa Laguna, Bed & Breakfast"
220,Hithadhoo,MV,84.0,clear sky,-0.6,73.08,Scoop Guest House
225,Tarakan,ID,81.41,moderate rain,3.3,117.63,RedDoorz Syariah near Taman Berlabuh Tarakan
230,Miranda,CO,80.6,scattered clouds,3.25,-76.23,Parqueadero toño lasso
238,Ixtapa,MX,86.0,clear sky,20.7,-105.2,Container Inn Puerto Vallarta
239,Bengkulu,ID,76.17,overcast clouds,-3.8,102.27,Grage Hotel Bengkulu
249,Sola,VU,78.66,overcast clouds,-13.88,167.55,Ulkel Guest House
254,Russell,US,75.2,clear sky,32.35,-85.2,Macs
257,Hirara,JP,78.93,clear sky,24.8,125.28,Hotel Atoll Emerald Miyakojima
260,Nabire,ID,75.61,overcast clouds,-3.37,135.48,Hotel Nusantara Nabire
262,Singkang,MY,78.8,few clouds,2.1,102.8,Kampung Seri Makmor Pagoh
265,Nanakuli,US,75.2,clear sky,21.39,-158.15,Camp Pālehua
271,Samarai,PG,80.49,few clouds,-10.62,150.67,Nuli Sapi
277,Long Xuyen,VN,78.8,scattered clouds,10.38,105.42,Nhà nghĩ Vy Linh
279,Meulaboh,ID,77.65,moderate rain,4.14,96.13,Kost Pria
280,Auki,SB,76.78,light rain,-8.77,160.7,Auki Motel
283,Bitung,ID,77.0,moderate rain,1.45,125.18,Peoplesight Learning Center ( PLC )
284,Trairi,BR,86.22,overcast clouds,-3.28,-39.27,Pousada Field Lilies - Trairi
292,Arraias,BR,81.64,moderate rain,-12.93,-46.94,Hotel Japão
293,Santa Rosa,PH,80.6,few clouds,14.31,121.11,Erlyn’s Sta Rosa City Home
296,Coahuayana,MX,80.6,clear sky,18.73,-103.68,Hotel Los Arcos
297,Mutoko,ZW,81.61,broken clouds,-17.4,32.23,Nyamakwere Lodges
298,Srivardhan,IN,76.03,clear sky,18.03,73.02,Savli Resort/Hotel - Shrivardhan
299,Abonnema,NG,80.6,few clouds,4.71,6.79,Corper's Lodge Obonoma
301,Acapulco,MX,86.0,scattered clouds,16.86,-99.89,HS Hotsson Smart Acapulco
302,Praia,CV,82.4,scattered clouds,14.92,-23.51,LT Aparthotel
303,San Patricio,US,82.0,broken clouds,28.02,-97.52,"Motel 6 Sinton, TX"
307,Hambantota,LK,79.5,light rain,6.12,81.12,Bungalow 63
318,Samana,DO,86.0,broken clouds,19.21,-69.34,The Bannister - Hotel & Yacht Club
319,Pedernales,DO,87.8,scattered clouds,18.04,-71.74,Hotel Costa Marina
322,Kavieng,PG,82.49,broken clouds,-2.57,150.8,Nusa Island Retreat
323,Palu,ID,76.01,overcast clouds,-0.89,119.87,Hotel Santika Palu
324,Mainit,PH,78.78,light rain,9.54,125.52,P&G Apartment
328,Sao Jose Da Coroa Grande,BR,82.38,broken clouds,-8.9,-35.15,Crôa Mares Hotel
338,Immokalee,US,86.0,scattered clouds,26.42,-81.42,Seminole Casino Hotel Immokalee
343,Ambulu,ID,76.42,broken clouds,-8.35,113.61,Hotel Ambulu Jember
347,Isabela,PH,80.38,light rain,6.71,121.97,Isawad Resort
352,Ames,US,75.0,clear sky,42.03,-93.62,Holiday Inn Express & Suites Ames
366,Itaituba,BR,86.0,scattered clouds,-4.28,-55.98,Hotel Campos
370,Marsh Harbour,BS,79.23,overcast clouds,26.54,-77.06,Abaco Beach Resort
372,La Reforma,MX,88.0,clear sky,25.08,-108.05,Arremar Angostura
376,China,MX,78.24,clear sky,25.7,-99.23,Hotel Viajero
379,Labuhan,ID,78.84,broken clouds,-6.88,112.21,bador sepret
386,Arlit,NE,81.45,clear sky,18.74,7.39,Hôtel Telwa Bungalow
393,Tiarei,PF,80.6,few clouds,-17.53,-149.33,Le Rocher de Tahiti
401,Puerto Escondido,MX,84.2,broken clouds,15.85,-97.07,Aldea del Bazar Hotel and Spa
405,Port Moresby,PG,77.0,light rain,-9.44,147.18,Lamana Hotel
407,Dingle,PH,76.19,light rain,11.0,122.67,SEGAYA PROPERTY
413,Batticaloa,LK,81.27,light rain,7.71,81.69,Grand Star Guest House
415,Las Lomas,PA,80.6,shower rain,8.43,-82.4,Hotel Castilla
416,Pemangkat,ID,80.31,overcast clouds,1.17,108.97,Kost H.Syamsuddin
421,Naze,JP,77.0,few clouds,28.37,129.48,奄美ポートタワーホテル
433,Iquitos,PE,77.0,heavy intensity rain,-3.75,-73.25,Cortez Malaga Techy Caroly
435,Mumford,GH,79.9,broken clouds,5.26,-0.76,Spanish Villa
436,Puerto Princesa,PH,78.51,light rain,9.74,118.74,Deep Forest Garden Inn
441,Houma,US,80.01,scattered clouds,29.6,-90.72,Courtyard by Marriott Houma
444,Port Hedland,AU,77.0,clear sky,-20.32,118.57,The Esplanade Hotel
447,Bani,DO,87.8,broken clouds,18.28,-70.33,Hospedaje Henriquez
449,Bathsheba,BB,87.8,scattered clouds,13.22,-59.52,Atlantis Hotel
451,Nampula,MZ,84.0,clear sky,-15.12,39.27,Tacab Residencial
456,Biltine,TD,81.43,clear sky,14.53,20.92,Hôtel Trois Étoiles de Biltine
459,Makakilo City,US,75.2,clear sky,21.35,-158.09,Marriott's Ko Olina Beach Club
467,Muisne,EC,84.2,few clouds,0.6,-80.03,Quinta Samay
474,Altagracia De Orituco,VE,83.17,light rain,9.86,-66.38,Posada Quinta Mi Refugio
476,Luwuk,ID,78.46,few clouds,-0.95,122.79,Hotel Santika Luwuk
485,North Platte,US,75.99,clear sky,41.12,-100.77,Holiday Inn Express & Suites North Platte
487,Toucheng,TW,82.0,overcast clouds,24.86,121.82,和風時尚VILLA會館
489,Manali,IN,82.4,mist,13.17,80.27,Sarathy Lodge
491,Puerto Ayacucho,VE,88.57,light rain,5.66,-67.62,Posada Turistica Manapiare
492,Bama,NG,79.74,scattered clouds,11.52,13.69,UN Humanitarian Hub
495,Ambilobe,MG,75.99,few clouds,-13.2,49.05,Hôtel & Restaurant DIANA Ambilobe
501,Kochi,IN,80.6,mist,9.94,76.26,Trident Hotel Cochin
502,Sonoita,MX,84.0,overcast clouds,31.85,-112.83,Motel San Antonio
508,Ilheus,BR,80.6,broken clouds,-14.79,-39.05,Pontal Praia Hotel
513,Kampong Thum,KH,75.24,light rain,12.71,104.89,Sambor Village Hotel
514,Safford,US,75.2,clear sky,32.83,-109.71,SpringHill Suites by Marriott Thatcher
519,Dicabisagan,PH,76.89,scattered clouds,17.08,122.42,Nancy Montanes Bernardo
525,Maceio,BR,86.0,scattered clouds,-9.67,-35.74,Mercure Maceio Pajucara Hotel
526,Kununurra,AU,78.8,light rain,-15.77,128.73,Hotel Kununurra
531,Grand-Lahou,CI,80.13,scattered clouds,5.14,-5.02,Hotel Beatitude de Grand Lahou
532,Tamale,GH,89.46,clear sky,9.4,-0.84,Tap Hotel
533,Vao,NC,75.06,clear sky,-22.67,167.48,Hotel Kou-Bugny
535,West Bay,KY,79.0,broken clouds,19.37,-81.42,Calypso Cove
536,Kudal,IN,76.73,clear sky,16.03,73.68,Coconut Hotel
540,Panaba,MX,81.82,light rain,21.28,-88.27,Hotel Amor
550,Moron,AR,77.0,scattered clouds,-34.65,-58.62,Hotel Morón
551,Cordoba,AR,84.2,clear sky,-31.41,-64.18,Sheraton Cordoba Hotel
558,Linhares,BR,81.34,light rain,-19.39,-40.07,Hotel Conceição
571,Maragogi,BR,82.13,broken clouds,-9.01,-35.22,Salinas do Maragogi All Inclusive Resort
574,Azare,NG,79.45,clear sky,11.68,10.19,Criss Hotel
581,Basco,PH,80.01,clear sky,20.45,121.97,Nathaniel's Lodge
582,Namatanai,PG,80.35,light rain,-3.67,152.43,Namatanai Hotel
583,Teseney,ER,83.34,few clouds,15.11,36.66,Sabrin Hotel
596,Conakry,GN,89.6,few clouds,9.54,-13.68,Riviera Royal Hotel
599,Trincomalee,LK,82.35,light rain,8.57,81.23,Welcombe Hotel
600,Chulumani,BO,79.07,broken clouds,-16.41,-67.53,HOSTAL DION
601,Miramar,US,84.0,scattered clouds,25.99,-80.23,Stadium Hotel
602,Caravelas,BR,82.33,light rain,-17.71,-39.25,Pousada dos Navegantes
603,Pizarro,CO,80.15,broken clouds,4.95,-77.37,"Playa Pizarro, Bajo Baudó, Chocó, Colombia"
611,Bandarbeyla,SO,75.6,broken clouds,9.49,50.81,REER XOOSHLE GROUP
612,Maxixe,MZ,80.01,clear sky,-23.86,35.35,Oceano
613,Luganville,VU,78.21,overcast clouds,-15.53,167.17,The Espiritu Hotel
614,Casas Grandes,MX,75.25,overcast clouds,30.37,-107.95,PUEBLO DEL SOuL
615,Santiago,CL,84.0,few clouds,-33.46,-70.65,Hotel Panamericano
618,San Cristobal,VE,89.6,scattered clouds,7.77,-72.22,Pirineos
623,Adzope,CI,77.2,moderate rain,6.11,-3.86,Hotel eunice
634,Kathu,TH,84.99,few clouds,7.92,98.33,Novotel Phuket Resort
642,Sulangan,PH,83.07,moderate rain,11.14,123.72,Maia's Beach Resort
647,Paita,PE,75.2,clear sky,-5.09,-81.11,Hotel Náutico de Paita
650,Todos Santos,MX,82.0,clear sky,23.45,-110.22,Hotel California Todos Santos
653,Mercedes,AR,81.0,scattered clouds,-34.65,-59.43,Posada del Inti Centro
661,Myrtle Beach,US,75.0,scattered clouds,33.69,-78.89,Bay View Resort Myrtle Beach
663,Manokwari,ID,80.49,overcast clouds,-0.87,134.08,Swiss Belhotel Manokwari
664,Lorengau,PG,80.71,overcast clouds,-2.02,147.27,Lorengau Harbourside Hotel
666,Dhidhdhoo,MV,83.79,overcast clouds,6.88,73.1,Dhidhoo beach
667,Nishihara,JP,77.0,few clouds,26.18,127.76,Minshuku Agaihama
668,Garowe,SO,78.58,few clouds,8.41,48.48,Curubo Hotel
679,Road Town,VG,86.0,scattered clouds,18.42,-64.62,"ZINGARA 76ft Catamaran, full crew-all included"
682,Agbor,NG,79.45,scattered clouds,6.25,6.19,MIRAMAS HOTEL
